{
  "centerLat": 55.751244,
  "centerLon": 37.618423,
  "name": "Маркеры",
  "comment": "Города и достопримечательности.",
  "items": [
    {
      "name":"Москва",
      "info":"столица России, город федерального значения, административный центр Центрального федерального округа и центр Московской области, в состав которой не входит[6]. Крупнейший по численности населения город России и её субъект — 13 010 112[3] человек (2021), самый населённый из городов, полностью расположенных в Европе, занимает 22-е место среди городов мира по численности населения[7], крупнейший русскоязычный город в мире. Центр Московской городской агломерации. Самый крупный город Европы по площади[8].",
      "lat":"55.751244",
      "lon":"37.618423",
      "attractions":[
        {
          "name":"Московский Кремль",
          "lat":"55.752121",
          "lon":"37.617664",
          "info":"Крепость в центре Москвы и древнейшая её часть, главный общественно-политический и историко-художественный комплекс города, официальная резиденция Президента Российской Федерации, вплоть до распада СССР в декабре 1991 года была официальной резиденцией Генерального секретаря ЦК КПСС (в 1990—1991 годах — Президента СССР). Одно из самых известных архитектурных сооружений в мире."
        },
        {
          "name":"Парк Зарядье",
          "lat":"55.75116",
          "lon":"37.62872",
          "info":"Общественное пространство Москвы, городской культурно-просветительский центр «Зарядье» — объект в одноимённом историческом районе Москвы, созданный на месте снесённой в 2006 году гостиницы «Россия». Расположен на территории площадью в 13 га между Китайгородским проездом, улицей Варваркой и Москворецкой набережной."
        },
        {
          "name":"Усадьба Кусково",
          "lat":"55.73544",
          "lon":"37.80722",
          "info":"Бывшее имение графов Шереметевых, где сохранился архитектурно-художественный ансамбль XVIII века. Расположен на востоке Москвы на территории района Вешняки."
        }
      ]
    },
    {
      "name":"Санкт-Петербург",
      "info":"Второй по численности населения город России. Город федерального значения. Административный центр Северо-Западного федерального округа. Основан 16 (27) мая 1703 года царём Петром I. В 1714—1728 и 1732—1918 годах — столица Российского государства[.",
      "lat":"59.937500",
      "lon":"30.308611",
      "attractions":[
        {
          "name":"Большой Санкт-Петербургский Государственный цирк",
          "lat":"59.9384720",
          "lon":"30.3409800",
          "info":"Цирк города Санкт-Петербурга, первый каменный стационарный цирк России, один из старейших цирков России."
        },
        {
          "name":"Контактный зоопарк «Радуга»",
          "lat":"60.1906640",
          "lon":"29.7057220",
          "info":"Яркие эмоции и радость от общения с животными в зоопарке \"Радуга\" для всей семьи. А еще маленькие посетители любят порезвиться на детской площадке на территории зоопарка."
        },
        {
          "name":"Город профессий для детей «КидБург»",
          "lat":"60.0589140",
          "lon":"30.3350920",
          "info":"КидБург Профессии – детский город профессий для детей от 1 до 14 лет. Играя, ребенок может освоить здесь более 50 профессий, а также получить важные навыки и умения, которые пригодятся в жизни (Soft Skills)."
        },
        {
          "name":"Исаакиевский собор",
          "lat":"59.9340840311751",
          "lon":"30.3061486809257",
          "info":"Крупнейший православный храм Санкт-Петербурга. Расположен на Исаакиевской площади. Кафедральный собор Санкт-Петербургской епархии с 1858 по 1929 год. С 1928 года имеет статус музея (музейный комплекс «Государственный музей-памятник „Исаакиевский собор“»)."
        }
      ]
    },
    {
      "name":"Нижний Новгород",
      "info":"город в центральной России, административный центр Приволжского федерального округа и Нижегородской области. Второй по численности населения город в Приволжском федеральном округе и на реке Волге. Основан по некоторым оценкам 4 февраля 1221 года[11] владимирским князем Юрием Всеволодовичем.",
      "lat":"56.2965039",
      "lon":"43.9360589",
      "attractions":[
        {
          "name":"Площадь Минина и Пожарского",
          "lat":"56.3297083077",
          "lon":"44.0234311694",
          "info":" Является общественно-культурным центром города, местом проведения всех наиболее значимых торжеств и праздников. Расположена в исторической части города (в Нижегородском районе), с юго-восточной стороны от нагорной части Кремля."
        }
      ]
    }
  ]
}