{
  "centerLat": 55.751244,
  "centerLon": 37.618423,
  "name": "Маркеры",
  "comment": "Города и достопримечательности.",
  "items": [
    {
      "name":"Москва",
      "lat":"55.751244",
      "lon":"37.618423",
      "attractions":[
        {
          "name":"Московский Кремль",
          "lat":"55.752121",
          "lon":"37.617664"
        },
        {
          "name":"Парк Зарядье",
          "lat":"55.75116",
          "lon":"37.62872"
        },
        {
          "name":"Усадьба Кусково",
          "lat":"55.73544",
          "lon":"37.80722"
        }
      ]
    },
    {
      "name":"Санкт-Петербург",
      "lat":"59.937500",
      "lon":"30.308611",
      "attractions":[
        {
          "name":"Большой Санкт-Петербургский Государственный цирк",
          "lat":"59.9384720",
          "lon":"30.3409800"
        },
        {
          "name":"Контактный зоопарк «Радуга»",
          "lat":"60.1906640",
          "lon":"29.7057220"
        },
        {
          "name":"Город профессий для детей «КидБург»",
          "lat":"60.0589140",
          "lon":"30.3350920"
        },
        {
          "name":"Исаакиевский собор",
          "lat":"59.9340840311751",
          "lon":"30.3061486809257"
        }
      ]
    },
    {
      "name":"Нижний Новгород",
      "lat":"56.2965039",
      "lon":"43.9360589",
      "attractions":[
        {
          "name":"Площадь Минина и Пожарского, Russia",
          "lat":"56.3297083077",
          "lon":"44.0234311694"
        }
      ]
    }
  ]
}